{
"type": "FeatureCollection",
"name": "halte_transjakarta",
"crs": { "type": "name", "properties": { "name": "urn:ogc:def:crs:OGC:1.3:CRS84" } },
"features": [
{ "type": "Feature", "properties": { "OBJECTID": 1, "Name": "Halte Busway CBD Ciledug", "Snippet": "Jl. Raden Patah, Karang Tengah, Ciledug, Kota Tangerang, Banten" }, "geometry": { "type": "Point", "coordinates": [ 106.709028900163673, -6.223628999778498, 0.0 ] } },
{ "type": "Feature", "properties": { "OBJECTID": 2, "Name": "Halte Busway Utan Kayu", "Snippet": "Jl. Pramuka, RT.12/RW.5, Rawasari, Cemp. Putih, Kota Jakarta Timur, Daerah Khusus Ibukota Jakarta 10570" }, "geometry": { "type": "Point", "coordinates": [ 106.864573199593565, -6.192750199961722, 0.0 ] } },
{ "type": "Feature", "properties": { "OBJECTID": 3, "Name": "Departemen Kesehatan", "Snippet": "RT.7/RW.4, Kuningan Timur, Kota Jakarta Selatan, 12950" }, "geometry": { "type": "Point", "coordinates": [ 106.83319159961269, -6.228755200192268, 0.0 ] } },
{ "type": "Feature", "properties": { "OBJECTID": 4, "Name": "Halte Busway Sawah besar", "Snippet": "Hayam Wuruk Sreet No.38, RT.14/RW.1, Kebon Kelapa, Gambir, Central Jakarta City, Jakarta 10120" }, "geometry": { "type": "Point", "coordinates": [ 106.819621800305924, -6.159928899598981, 0.0 ] } },
{ "type": "Feature", "properties": { "OBJECTID": 5, "Name": "Halte Busway Pondok Indah Mall", "Snippet": "Jl. Metro Pondok Indah, RT.1/RW.16, Pd. Pinang, Kby. Lama, Kota Jakarta Selatan, Daerah Khusus Ibukota Jakarta 12310" }, "geometry": { "type": "Point", "coordinates": [ 106.783668500301133, -6.267125500141674, 0.0 ] } },
{ "type": "Feature", "properties": { "OBJECTID": 6, "Name": "Pasar Rumput", "Snippet": "Jalan Pasar rumput, RT.1/RW.3, Ps. Manggis, Kecamatan Setiabudi, Kota Jakarta Selatan, Daerah Khusus Ibukota Jakarta 12970" }, "geometry": { "type": "Point", "coordinates": [ 106.841142500426088, -6.207141000256911, 0.0 ] } },
{ "type": "Feature", "properties": { "OBJECTID": 7, "Name": "Halte Busway, Tanjung Priok Jakarta Utara", "Snippet": "Terminal Bus TG,Priok.Jl.St, RT.6/RW.8, Tj. Priok, Kota Jkt Utara, Daerah Khusus Ibukota Jakarta 14310" }, "geometry": { "type": "Point", "coordinates": [ 106.881110099751368, -6.109549400184619, 0.0 ] } },
{ "type": "Feature", "properties": { "OBJECTID": 8, "Name": "Bermis", "Snippet": "RT.1/RW.3, East Kelapa Gading, Kelapa Gading, North Jakarta City, Jakarta 13260" }, "geometry": { "type": "Point", "coordinates": [ 106.89858819978565, -6.178225299957603, 0.0 ] } },
{ "type": "Feature", "properties": { "OBJECTID": 9, "Name": "Masjid Agung", "Snippet": "RT.2/RW.1, Selong, Kebayoran Baru, South Jakarta City, Jakarta 12120" }, "geometry": { "type": "Point", "coordinates": [ 106.798269599862181, -6.234555599860983, 0.0 ] } },
{ "type": "Feature", "properties": { "OBJECTID": 10, "Name": "Transjakarta shelter Juanda", "Snippet": "Jl. Ir H. Juanda I B No.2, RT.7/RW.1, Kb. Klp., Gambir, Kota Jakarta Pusat, Daerah Khusus Ibukota Jakarta 10120" }, "geometry": { "type": "Point", "coordinates": [ 106.83094510033618, -6.167907299881961, 0.0 ] } },
{ "type": "Feature", "properties": { "OBJECTID": 11, "Name": "Halte CSW Transjakarta", "Snippet": "Jl. Kyai Maja, RT.11/RW.7, Gunung, Kby. Baru, Kota Jakarta Selatan, Daerah Khusus Ibukota Jakarta 12120" }, "geometry": { "type": "Point", "coordinates": [ 106.798217699986935, -6.239861199734548, 0.0 ] } },
{ "type": "Feature", "properties": { "OBJECTID": 12, "Name": "Imigrasi Jakarta Timur", "Snippet": "RT.9/RW.9, East Pisangan, Pulo Gadung, East Jakarta City, Jakarta 13230" }, "geometry": { "type": "Point", "coordinates": [ 106.882266000175832, -6.214634999605494, 0.0 ] } },
{ "type": "Feature", "properties": { "OBJECTID": 13, "Name": "Transjakarta shelter Kwitang", "Snippet": "Jl. Prajurit KKO Usman dan Harun No.28, RT.1/RW.5, Senen, Kota Jakarta Pusat, Daerah Khusus Ibukota Jakarta 10410" }, "geometry": { "type": "Point", "coordinates": [ 106.838459599730811, -6.181152899886399, 0.0 ] } },
{ "type": "Feature", "properties": { "OBJECTID": 14, "Name": "Halte Halimun", "Snippet": "Jl. Sultan Agung, RT.12/RW.6, Guntur, Kecamatan Setiabudi, Kota Jakarta Selatan, Daerah Khusus Ibukota Jakarta 12980" }, "geometry": { "type": "Point", "coordinates": [ 106.832519100076468, -6.205059499596189, 0.0 ] } },
{ "type": "Feature", "properties": { "OBJECTID": 15, "Name": "Kedoya Green Garden", "Snippet": "Jalan Panjang, Kedoya Utara, Kebon Jeruk, Kota Jakarta Barat, Daerah Khusus Ibukota Jakarta 11520, Daerah Khusus Ibukota Jakarta" }, "geometry": { "type": "Point", "coordinates": [ 106.763063899979045, -6.164421499752336, 0.0 ] } },
{ "type": "Feature", "properties": { "OBJECTID": 16, "Name": "halte Transjakarta raya bekasi Pulo Gebang", "Snippet": "Jl. Raya Bekasi, RW.1, Ujung Menteng, Cakung, Kota Jakarta Timur, Daerah Khusus Ibukota Jakarta 13960" }, "geometry": { "type": "Point", "coordinates": [ 106.959866799813028, -6.187609700327357, 0.0 ] } },
{ "type": "Feature", "properties": { "OBJECTID": 17, "Name": "Halte Busway Duren Tiga", "Snippet": "Jl. Mampang Prpt. Raya No.82, RT.6/RW.6, Tegal Parang, Mampang Prpt., Kota Jakarta Selatan, Daerah Khusus Ibukota Jakarta 12790" }, "geometry": { "type": "Point", "coordinates": [ 106.826215900243653, -6.249921800350762, 0.0 ] } },
{ "type": "Feature", "properties": { "OBJECTID": 18, "Name": "Halte Busway Pluit", "Snippet": "RT.15/RW.4, Pluit, Penjaringan, North Jakarta City, Jakarta 14450" }, "geometry": { "type": "Point", "coordinates": [ 106.790974599798005, -6.115807999939193, 0.0 ] } },
{ "type": "Feature", "properties": { "OBJECTID": 19, "Name": "Halte Transjakarta JORR W2", "Snippet": "Jl. Ciledug Raya No.154, RT.1/RW.4, Petukangan Sel., Pesanggrahan, Kota Jakarta Selatan, Daerah Khusus Ibukota Jakarta 12260" }, "geometry": { "type": "Point", "coordinates": [ 106.755255199967564, -6.236030200233529, 0.0 ] } },
{ "type": "Feature", "properties": { "OBJECTID": 20, "Name": "Halte Busway Jamsostek", "Snippet": "Unnamed Road, RW.3, RT.3/RW.3, Kuningan Bar., Mampang Prpt., Kota Jakarta Selatan, Daerah Khusus Ibukota Jakarta 12710" }, "geometry": { "type": "Point", "coordinates": [ 106.821783499808703, -6.23307230034635, 0.0 ] } },
{ "type": "Feature", "properties": { "OBJECTID": 21, "Name": "halte busway RS.medika permata hijau", "Snippet": "RT.7/RW.8, South Sukabumi, Kebon Jeruk, West Jakarta City, Jakarta 11560" }, "geometry": { "type": "Point", "coordinates": [ 106.777490999609995, -6.218361999706474, 0.0 ] } },
{ "type": "Feature", "properties": { "OBJECTID": 22, "Name": "Halte Busway Cakung Cilincing", "Snippet": "Jl. Cakung Cilincing Barat No.43, RT.2/RW.3, Cakung Bar., Cakung, Kota Jakarta Timur, Daerah Khusus Ibukota Jakarta 13910" }, "geometry": { "type": "Point", "coordinates": [ 106.942579599768749, -6.187731400183907, 0.0 ] } },
{ "type": "Feature", "properties": { "OBJECTID": 23, "Name": "RS. Harapan Bunda", "Snippet": "Jalan Raya Bogor, Rambutan, Ciracas, Kota Jakarta Timur, 13830" }, "geometry": { "type": "Point", "coordinates": [ 106.868042700410342, -6.301916599971037, 0.0 ] } },
{ "type": "Feature", "properties": { "OBJECTID": 24, "Name": "Halte Busway Departemen Luar Negeri", "Snippet": "Jl. Abdul Rahman Saleh Raya, RT.9/RW.5, Senen, Sawah Besar, Kota Jakarta Pusat, Daerah Khusus Ibukota Jakarta 10410" }, "geometry": { "type": "Point", "coordinates": [ 106.834748399818864, -6.173633599910659, 0.0 ] } },
{ "type": "Feature", "properties": { "OBJECTID": 25, "Name": "Halte Transjakarta Sunter Kelapa Gading", "Snippet": "Jl. Yos Sudarso No.30, RT.10, RT.10/RW.11, Sunter Jaya, Tj. Priok, Kota Jkt Utara, Daerah Khusus Ibukota Jakarta 14360" }, "geometry": { "type": "Point", "coordinates": [ 106.890450200416467, -6.142967600374391, 0.0 ] } },
{ "type": "Feature", "properties": { "OBJECTID": 26, "Name": "Halte Transjakarta Mayestik", "Snippet": "Jl. Bacang, RT.9/RW.2, Kby. Lama Sel., Kby. Lama, Kota Jakarta Selatan, Daerah Khusus Ibukota Jakarta 12130" }, "geometry": { "type": "Point", "coordinates": [ 106.790153300234692, -6.241768300266813, 0.0 ] } },
{ "type": "Feature", "properties": { "OBJECTID": 27, "Name": "Central Busway stop Senen", "Snippet": "RW.2, Senen, Central Jakarta City, Jakarta 10410" }, "geometry": { "type": "Point", "coordinates": [ 106.842104999845901, -6.178201699948431, 0.0 ] } },
{ "type": "Feature", "properties": { "OBJECTID": 28, "Name": "Halte Transjakarta Velbak", "Snippet": "Jl. Kebayoran Baru No.11, RT.4/RW.7, Gunung, Kby. Baru, Kota Jakarta Selatan, Daerah Khusus Ibukota Jakarta 12120" }, "geometry": { "type": "Point", "coordinates": [ 106.785580199966319, -6.239383600372832, 0.0 ] } },
{ "type": "Feature", "properties": { "OBJECTID": 29, "Name": "Halte Busway Atrium", "Snippet": "Senen Raya Road No.46, RW.2, Senen, Central Jakarta City, Jakarta 10410" }, "geometry": { "type": "Point", "coordinates": [ 106.841885100317199, -6.178148899851806, 0.0 ] } },
{ "type": "Feature", "properties": { "OBJECTID": 30, "Name": "halte Busway Permai Koja", "Snippet": "Jl. Lorong 104 Timur, RT.4/RW.12, Koja, Kota Jkt Utara, Daerah Khusus Ibukota Jakarta 14230" }, "geometry": { "type": "Point", "coordinates": [ 106.894162400374512, -6.114108599632118, 0.0 ] } },
{ "type": "Feature", "properties": { "OBJECTID": 31, "Name": "Yos Sudarso Kodamar", "Snippet": "Jalan Yos Sudarso, Kota Jkt Utara, 14360" }, "geometry": { "type": "Point", "coordinates": [ 106.881685799859838, -6.162050699779911, 0.0 ] } },
{ "type": "Feature", "properties": { "OBJECTID": 32, "Name": "Sunan Giri", "Snippet": "RT.9/RW.3, Rawamangun, Kota Jakarta Timur, Daerah Khusus Ibukota Jakarta 13220" }, "geometry": { "type": "Point", "coordinates": [ 106.883676700119679, -6.193263700259536, 0.0 ] } },
{ "type": "Feature", "properties": { "OBJECTID": 33, "Name": "Halte Transjakarta Pasar Cakung", "Snippet": "Jl. Bekasi Timur Raya, RT.5/RW.5, Cakung Bar., Cakung, Kota Jakarta Timur, Daerah Khusus Ibukota Jakarta 13910" }, "geometry": { "type": "Point", "coordinates": [ 106.935671899938313, -6.182426499982967, 0.0 ] } },
{ "type": "Feature", "properties": { "OBJECTID": 34, "Name": "Halte TransJakarta Bendungan Hilir (Arah Blok M)", "Snippet": "Jl. Jend. Sudirman, RT.5/RW.4, Karet Semanggi, Kecamatan Setiabudi, Kota Jakarta Selatan, Daerah Khusus Ibukota Jakarta 12930" }, "geometry": { "type": "Point", "coordinates": [ 106.815276599935203, -6.217113300038704, 0.0 ] } },
{ "type": "Feature", "properties": { "OBJECTID": 35, "Name": "Permata Hijau RS Medika", "Snippet": "RT.7/RW.8, South Sukabumi, Kebon Jeruk, West Jakarta City, Jakarta 11560" }, "geometry": { "type": "Point", "coordinates": [ 106.77760329975257, -6.218382899950825, 0.0 ] } },
{ "type": "Feature", "properties": { "OBJECTID": 36, "Name": "Halte Busway Pasar Baru", "Snippet": "Jl. Gedung Kesenian, Ps. Baru, Sawah Besar, Kota Jakarta Pusat, Daerah Khusus Ibukota Jakarta 10710" }, "geometry": { "type": "Point", "coordinates": [ 106.834830400003, -6.166135800027121, 0.0 ] } },
{ "type": "Feature", "properties": { "OBJECTID": 37, "Name": "Pondok Pinang", "Snippet": "Jl. H. Saikin, RT.6/RW.8, Pd. Pinang, Kby. Lama, Kota Jakarta Selatan, Daerah Khusus Ibukota Jakarta 12310" }, "geometry": { "type": "Point", "coordinates": [ 106.772033499746271, -6.282105400443811, 0.0 ] } },
{ "type": "Feature", "properties": { "OBJECTID": 38, "Name": "Kramat Sentiong NU", "Snippet": "RT.1/RW.8, Kramat, Senen, Kota Jakarta Pusat, Daerah Khusus Ibukota Jakarta 10430" }, "geometry": { "type": "Point", "coordinates": [ 106.845866200264993, -6.187882800151044, 0.0 ] } },
{ "type": "Feature", "properties": { "OBJECTID": 39, "Name": "Halte Transjakarta", "Snippet": "Jl. Komp. Kawasan, Rusunawa Kota Jkt Utara,, Marunda, Cilincing, Kota Jkt Utara, Daerah Khusus Ibukota Jakarta 14150" }, "geometry": { "type": "Point", "coordinates": [ 106.962679700208071, -6.096965499757971, 0.0 ] } },
{ "type": "Feature", "properties": { "OBJECTID": 40, "Name": "Museum Fatahillah", "Snippet": "RT.7/RW.7, Pinangsia, Tamansari, West Jakarta City, Jakarta 11110" }, "geometry": { "type": "Point", "coordinates": [ 106.812087800012023, -6.133933600155501, 0.0 ] } },
{ "type": "Feature", "properties": { "OBJECTID": 41, "Name": "Halte TransJakarta Dukuh Atas 1", "Snippet": "RT.10/RW.11, Setia Budi, Kota Jakarta Selatan, 10250" }, "geometry": { "type": "Point", "coordinates": [ 106.822212499807108, -6.205683799967346, 0.0 ] } },
{ "type": "Feature", "properties": { "OBJECTID": 42, "Name": "Halte Busway Pasar Induk Kramat Jati", "Snippet": "Jl. Bogor Raya Blok Sapri. K No.1, RT.9/RW.7, Rambutan, Ciracas, Kota Jakarta Timur, Daerah Khusus Ibukota Jakarta 13830" }, "geometry": { "type": "Point", "coordinates": [ 106.872013700072273, -6.294313199894191, 0.0 ] } },
{ "type": "Feature", "properties": { "OBJECTID": 43, "Name": "Halte Bus Transjakarta Bandengan Pekojan", "Snippet": "Jl. Bandengan Sel., RT.1/RW.11, Pekojan, Tambora, Kota Jkt Utara, Daerah Khusus Ibukota Jakarta 11240" }, "geometry": { "type": "Point", "coordinates": [ 106.803153600258497, -6.136499499951924, 0.0 ] } },
{ "type": "Feature", "properties": { "OBJECTID": 44, "Name": "Bank Indonesia", "Snippet": "RT.11/RW.2, Gambir, Central Jakarta City, Jakarta 10110" }, "geometry": { "type": "Point", "coordinates": [ 106.82295470039918, -6.182778300378232, 0.0 ] } },
{ "type": "Feature", "properties": { "OBJECTID": 45, "Name": "Halte Bus Transjakarta Monas", "Snippet": "Jl. Medan Merdeka Barat No.12, RT.5/RW.2, Gambir, Kota Jakarta Pusat, Daerah Khusus Ibukota Jakarta 10110" }, "geometry": { "type": "Point", "coordinates": [ 106.822862599929124, -6.176090300426949, 0.0 ] } },
{ "type": "Feature", "properties": { "OBJECTID": 46, "Name": "Gelanggang Remaja", "Snippet": "Jl. Otista Raya, RT.13/RW.8, Kp. Melayu, Jatinegara, Kota Jakarta Timur, Daerah Khusus Ibukota Jakarta 13330" }, "geometry": { "type": "Point", "coordinates": [ 106.867960600401432, -6.235389999848564, 0.0 ] } },
{ "type": "Feature", "properties": { "OBJECTID": 47, "Name": "Jembatan Gantung", "Snippet": "RT.1/RW.4, Kedaung Kali Angke, Cengkareng, Kota Jakarta Barat, Daerah Khusus Ibukota Jakarta 11710" }, "geometry": { "type": "Point", "coordinates": [ 106.749461400423343, -6.155514499994126, 0.0 ] } },
{ "type": "Feature", "properties": { "OBJECTID": 48, "Name": "Halte Busway Pedati Prumpung", "Snippet": "RT.2/RW.3, North Cipinang Besar, Jatinegara, East Jakarta City, Jakarta 13350" }, "geometry": { "type": "Point", "coordinates": [ 106.874440099730862, -6.220364699970901, 0.0 ] } },
{ "type": "Feature", "properties": { "OBJECTID": 49, "Name": "Halte Busway Landmark Pluit", "Snippet": "Jalan Pluit Selatan Raya No.2, RW.8, Penjaringan, RT.3/RW.10, Penjaringan, Kota Jkt Utara, Daerah Khusus Ibukota Jakarta 14440" }, "geometry": { "type": "Point", "coordinates": [ 106.799685600410214, -6.125318999672061, 0.0 ] } },
{ "type": "Feature", "properties": { "OBJECTID": 50, "Name": "Halte Busway Warung Jati Barat", "Snippet": "Jl. Warung Jati Barat No.64, RT.3/RW.11, Jati Padang, Ps. Minggu, Kota Jakarta Selatan, Daerah Khusus Ibukota Jakarta 12540" }, "geometry": { "type": "Point", "coordinates": [ 106.826053700318084, -6.285883800397016, 0.0 ] } },
{ "type": "Feature", "properties": { "OBJECTID": 51, "Name": "Cempaka Mas", "Snippet": "Jl. Jend. Ahmad Yani, Klp. Gading Bar., Klp. Gading, Kota Jakarta Pusat, Daerah Khusus Ibukota Jakarta 14240" }, "geometry": { "type": "Point", "coordinates": [ 106.879192100335217, -6.165887999931215, 0.0 ] } },
{ "type": "Feature", "properties": { "OBJECTID": 52, "Name": "Busway stop Trans TV", "Snippet": "Jl. Kapten Tendean No.14, RT.15/RW.2, Mampang Prpt., Kota Jakarta Selatan, Daerah Khusus Ibukota Jakarta 12790" }, "geometry": { "type": "Point", "coordinates": [ 106.831740299775049, -6.240302800134089, 0.0 ] } },
{ "type": "Feature", "properties": { "OBJECTID": 53, "Name": "Glodok", "Snippet": "RT.1/RW.6, Mangga Besar, Tamansari, West Jakarta City, Jakarta 11120" }, "geometry": { "type": "Point", "coordinates": [ 106.815466099680805, -6.144608499782407, 0.0 ] } },
{ "type": "Feature", "properties": { "OBJECTID": 54, "Name": "S.Parman Podomoro City", "Snippet": "RT.12/RW.1, Tomang, Grogol petamburan, West Jakarta City, Jakarta 11470" }, "geometry": { "type": "Point", "coordinates": [ 106.792147000084071, -6.175470199889787, 0.0 ] } },
{ "type": "Feature", "properties": { "OBJECTID": 55, "Name": "Halte Busway Utan Kayu Rawamangun", "Snippet": "Jl. Jenderal Ahmad Yani No.113, RT.20/RW.10, Utan Kayu Utara, Matraman, Kota Jakarta Timur, Daerah Khusus Ibukota Jakarta 13120" }, "geometry": { "type": "Point", "coordinates": [ 106.873836599779338, -6.197420700404962, 0.0 ] } },
{ "type": "Feature", "properties": { "OBJECTID": 56, "Name": "Halte Busway Flyover Raya Bogor", "Snippet": "Jakarta Outer Ring Rd Toll, RW.6, Pulo Gebang, Cakung, East Jakarta City, Jakarta 13950" }, "geometry": { "type": "Point", "coordinates": [ 106.943920999754368, -6.198047499992072, 0.0 ] } },
{ "type": "Feature", "properties": { "OBJECTID": 57, "Name": "Halte Busway Mangga Dua", "Snippet": "Jl. Mangga Dua Raya No.22, RT.11/RW.5, Mangga Dua Sel., Sawah Besar, Kota Jakarta Pusat, Daerah Khusus Ibukota Jakarta 10730" }, "geometry": { "type": "Point", "coordinates": [ 106.826050399806149, -6.136286500021924, 0.0 ] } },
{ "type": "Feature", "properties": { "OBJECTID": 58, "Name": "Sunter Karya", "Snippet": "Jalan Danau Sunter Utara, RT.8/RW.15, Sunter Agung, Tanjung Priok, Kota Jkt Utara, 14350" }, "geometry": { "type": "Point", "coordinates": [ 106.870814699638743, -6.137638100118181, 0.0 ] } },
{ "type": "Feature", "properties": { "OBJECTID": 59, "Name": "Gatot Subroto Jamsostek", "Snippet": "Jalan Jenderal Gatot Subroto, RT.6/RW.3, Kuningan, East Kuningan, Setiabudi, South Jakarta City, Jakarta 12950" }, "geometry": { "type": "Point", "coordinates": [ 106.821597699874019, -6.23258700008995, 0.0 ] } },
{ "type": "Feature", "properties": { "OBJECTID": 60, "Name": "Halte Busway Rusun Marunda", "Snippet": "Jl. Rusun Marunda Cluster B No.1, RT.9/RW.1, Marunda, Cilincing, Kota Jkt Utara, Daerah Khusus Ibukota Jakarta 14150" }, "geometry": { "type": "Point", "coordinates": [ 106.96255739960435, -6.096999500426534, 0.0 ] } },
{ "type": "Feature", "properties": { "OBJECTID": 61, "Name": "Halte Busway Pasar Cakung", "Snippet": "Jl. Bekasi Timur Raya No.56, RT.5/RW.5, Cakung Bar., Cakung, Kota Jakarta Timur, Daerah Khusus Ibukota Jakarta 13910" }, "geometry": { "type": "Point", "coordinates": [ 106.935665199989046, -6.182447500052035, 0.0 ] } },
{ "type": "Feature", "properties": { "OBJECTID": 62, "Name": "Pesakih", "Snippet": "Jalan Daan Mogot, RT.2/RW.12, Kalideres, Kota Jakarta Barat, 11840" }, "geometry": { "type": "Point", "coordinates": [ 106.715352900416065, -6.154556300233025, 0.0 ] } },
{ "type": "Feature", "properties": { "OBJECTID": 63, "Name": "Halte Busway Simprug", "Snippet": "RW., RT.5/RW.2, Grogol Sel., Kby. Lama, Kota Jakarta Selatan, Daerah Khusus Ibukota Jakarta 12220" }, "geometry": { "type": "Point", "coordinates": [ 106.786520999644495, -6.233905300089475, 0.0 ] } },
{ "type": "Feature", "properties": { "OBJECTID": 64, "Name": "Halte Semanggi Busway", "Snippet": "Jalan Jenderal Gatot Subroto, RT.1/RW.4, Karet Semanggi, Setia Budi, South Jakarta City, Jakarta 12930" }, "geometry": { "type": "Point", "coordinates": [ 106.814160599731963, -6.221475600118822, 0.0 ] } },
{ "type": "Feature", "properties": { "OBJECTID": 65, "Name": "Bidara Cina", "Snippet": "Kp. Melayu Jatinegara, Gang Saabun, RT.5/RW.9, Kampung Melayu, Jatinegara, Kota Jakarta Timur, 13330" }, "geometry": { "type": "Point", "coordinates": [ 106.86719770011382, -6.229775599764082, 0.0 ] } },
{ "type": "Feature", "properties": { "OBJECTID": 66, "Name": "Pesakih", "Snippet": "RT.2/RW.12, Kalideres, Kota Jakarta Barat, 11840" }, "geometry": { "type": "Point", "coordinates": [ 106.715247400047531, -6.154802399710945, 0.0 ] } },
{ "type": "Feature", "properties": { "OBJECTID": 67, "Name": "Halte Bus Transjakarta Karet Kuningan 6-1", "Snippet": "Halte Bus, Jalan Haji R. Rasuna Said, Setiabudi, Daerah Khusus Ibukota Jakarta 12940" }, "geometry": { "type": "Point", "coordinates": [ 106.83089080017038, -6.217300199844317, 0.0 ] } },
{ "type": "Feature", "properties": { "OBJECTID": 68, "Name": "Kelapa Dua Sasak", "Snippet": "RT.2/RW.2, Kelapa Dua, Kebon Jeruk, West Jakarta City, Jakarta 11550" }, "geometry": { "type": "Point", "coordinates": [ 106.769541499940317, -6.205577299552658, 0.0 ] } },
{ "type": "Feature", "properties": { "OBJECTID": 69, "Name": "Tanah Merdeka", "Snippet": "Jalan Tanah Merdeka No.6b, RT.9/RW.5, Rambutan, Ciracas, Kota Jakarta Timur, 13830" }, "geometry": { "type": "Point", "coordinates": [ 106.873872900014362, -6.308191599762495, 0.0 ] } },
{ "type": "Feature", "properties": { "OBJECTID": 70, "Name": "Kampung Melayu", "Snippet": "Bali Mester, Jatinegara, East Jakarta City, Jakarta" }, "geometry": { "type": "Point", "coordinates": [ 106.866731200184802, -6.224627800332655, 0.0 ] } },
{ "type": "Feature", "properties": { "OBJECTID": 71, "Name": "Halte Busway Pesakih", "Snippet": "Daan Mogot Road No.60, RT.1/RW.12, Kalideres, West Jakarta City, Jakarta 11840" }, "geometry": { "type": "Point", "coordinates": [ 106.714791700076944, -6.154558099776409, 0.0 ] } },
{ "type": "Feature", "properties": { "OBJECTID": 72, "Name": "Jatinegara RS. Premier TransJakarta Bus Station", "Snippet": "Jalan Jatinegara Timur II No.9, RT.12/RW.2, Rawa Bunga, Jatinegara, Kota Jakarta Timur, 13310" }, "geometry": { "type": "Point", "coordinates": [ 106.868071899598533, -6.221422200174345, 0.0 ] } },
{ "type": "Feature", "properties": { "OBJECTID": 73, "Name": "Gambir 1", "Snippet": "RT.5/RW.2, Gambir, Central Jakarta City, Jakarta 10110" }, "geometry": { "type": "Point", "coordinates": [ 106.830370000075504, -6.174605400119049, 0.0 ] } },
{ "type": "Feature", "properties": { "OBJECTID": 74, "Name": "Pondok Indah 1", "Snippet": "Pondok Pinang, Kebayoran Lama, South Jakarta City, Jakarta" }, "geometry": { "type": "Point", "coordinates": [ 106.779973900075504, -6.286767500319854, 0.0 ] } },
{ "type": "Feature", "properties": { "OBJECTID": 75, "Name": "Halte Busway Tu Gas", "Snippet": "Jl. Pemuda No.2, Jatinegara Kaum, Pulo Gadung, Kota Jakarta Timur, Daerah Khusus Ibukota Jakarta 13250" }, "geometry": { "type": "Point", "coordinates": [ 106.903366699813432, -6.193116199752751, 0.0 ] } },
{ "type": "Feature", "properties": { "OBJECTID": 76, "Name": "Jembatan Merah", "Snippet": "RT.16/RW.3, North Gunung Sahari, Sawah Besar, Central Jakarta City, Jakarta 10720" }, "geometry": { "type": "Point", "coordinates": [ 106.834281100392502, -6.146709899742007, 0.0 ] } },
{ "type": "Feature", "properties": { "OBJECTID": 77, "Name": "Halte Busway ITC Cenpaka Mas", "Snippet": "A No., Jl. Letjend Suprapto No.17-18, RT.10/RW.8, Sumur Batu, Kemayoran, Kota Jakarta Pusat, Daerah Khusus Ibukota Jakarta 10640" }, "geometry": { "type": "Point", "coordinates": [ 106.876738399957276, -6.166512599776638, 0.0 ] } },
{ "type": "Feature", "properties": { "OBJECTID": 78, "Name": "Halte Busway Rumah Susun", "Snippet": "RT.1/RW.1, Kebon Baru, Tebet, South Jakarta City, Jakarta 12820" }, "geometry": { "type": "Point", "coordinates": [ 106.858385700239921, -6.226214299750097, 0.0 ] } },
{ "type": "Feature", "properties": { "OBJECTID": 79, "Name": "HALTE BUSWAY SUNAN GIRI", "Snippet": "Jl. Pemuda, RT.9/RW.3, Rawamangun, Pulo Gadung, Kota Jakarta Timur, Daerah Khusus Ibukota Jakarta 13220" }, "geometry": { "type": "Point", "coordinates": [ 106.883699100433205, -6.193241200121236, 0.0 ] } },
{ "type": "Feature", "properties": { "OBJECTID": 80, "Name": "Halte Transjakarta Kota", "Snippet": "RT.8/RW.6, Pinangsia, Tamansari, West Jakarta City, Jakarta 11110" }, "geometry": { "type": "Point", "coordinates": [ 106.814010699834, -6.137797299905401, 0.0 ] } },
{ "type": "Feature", "properties": { "OBJECTID": 81, "Name": "Raya Bekasi Ujung Menteng", "Snippet": "Jl. Raya Bekasi, RT.1/RW.2, Ujung Menteng, Cakung, Kota Jakarta Timur, Daerah Khusus Ibukota Jakarta 13960" }, "geometry": { "type": "Point", "coordinates": [ 106.965149299700499, -6.189382300053069, 0.0 ] } },
{ "type": "Feature", "properties": { "OBJECTID": 82, "Name": "UNJ", "Snippet": "Jl. Pemuda, RT.13/RW.2, Rawamangun, Pulo Gadung, Kota Jakarta Timur, Daerah Khusus Ibukota Jakarta 13220" }, "geometry": { "type": "Point", "coordinates": [ 106.880423899943082, -6.192942099997879, 0.0 ] } },
{ "type": "Feature", "properties": { "OBJECTID": 83, "Name": "Sawah Besar", "Snippet": "RT.14/RW.1, Kebon Kelapa, Gambir, Central Jakarta City, Jakarta 10130" }, "geometry": { "type": "Point", "coordinates": [ 106.819172200436753, -6.160487800371641, 0.0 ] } },
{ "type": "Feature", "properties": { "OBJECTID": 84, "Name": "Cempaka Tengah", "Snippet": "JL. Let. Jend. Suprapto, Cempaka Baru, 10640 Jakarta Pusat, Indonesia, Jakarta" }, "geometry": { "type": "Point", "coordinates": [ 106.866594899834809, -6.170383899697185, 0.0 ] } },
{ "type": "Feature", "properties": { "OBJECTID": 85, "Name": "Halte Kampung Melayu", "Snippet": "studio myra,bassuki rahmat Jatinegara, Bali Mester, Jatinegara, Kota Jakarta Timur" }, "geometry": { "type": "Point", "coordinates": [ 106.86681609978325, -6.224664999889796, 0.0 ] } },
{ "type": "Feature", "properties": { "OBJECTID": 86, "Name": "Halte Kota Harapan Indah 1", "Snippet": "Jl. Raya Bekasi, Medan Satria, Kota Bks, Jawa Barat 17132" }, "geometry": { "type": "Point", "coordinates": [ 106.973387499733406, -6.193557999801783, 0.0 ] } },
{ "type": "Feature", "properties": { "OBJECTID": 87, "Name": "Halte Busway Kuningan Barat", "Snippet": "Jalan Jenderal Gatot Subroto No.45-49, RT.2/RW.2, West Kuningan, Mampang Prapatan, South Jakarta City, Jakarta 12710" }, "geometry": { "type": "Point", "coordinates": [ 106.827450500340376, -6.237132900363008, 0.0 ] } },
{ "type": "Feature", "properties": { "OBJECTID": 88, "Name": "Ps. Induk Kramat Jati", "Snippet": "RT.9/RW.7, Rambutan, Ciracas, East Jakarta City, Jakarta 13540" }, "geometry": { "type": "Point", "coordinates": [ 106.872038499776977, -6.294222600392629, 0.0 ] } },
{ "type": "Feature", "properties": { "OBJECTID": 89, "Name": "Pulo Gadung", "Snippet": "Pulo Gadung, Kota Jakarta Timur, 13260" }, "geometry": { "type": "Point", "coordinates": [ 106.909071700298796, -6.183233100127438, 0.0 ] } },
{ "type": "Feature", "properties": { "OBJECTID": 90, "Name": "Summarecon Bekasi", "Snippet": "Marga Mulya, North Bekasi, Bekasi City, West Java 17143" }, "geometry": { "type": "Point", "coordinates": [ 107.002817700376625, -6.225516700135529, 0.0 ] } },
{ "type": "Feature", "properties": { "OBJECTID": 91, "Name": "Raya Bekasi Ujung Menteng", "Snippet": "Jl. Raya Bekasi, RT.1/RW.2, Ujung Menteng, Cakung, Kota Jakarta Timur, Daerah Khusus Ibukota Jakarta 13960" }, "geometry": { "type": "Point", "coordinates": [ 106.965149299700499, -6.189382300053069, 0.0 ] } },
{ "type": "Feature", "properties": { "OBJECTID": 92, "Name": "UNJ", "Snippet": "Jl. Pemuda, RT.13/RW.2, Rawamangun, Pulo Gadung, Kota Jakarta Timur, Daerah Khusus Ibukota Jakarta 13220" }, "geometry": { "type": "Point", "coordinates": [ 106.880423899943082, -6.192942099997879, 0.0 ] } },
{ "type": "Feature", "properties": { "OBJECTID": 93, "Name": "Sawah Besar", "Snippet": "RT.14/RW.1, Kebon Kelapa, Gambir, Central Jakarta City, Jakarta 10130" }, "geometry": { "type": "Point", "coordinates": [ 106.819172200436753, -6.160487800371641, 0.0 ] } },
{ "type": "Feature", "properties": { "OBJECTID": 94, "Name": "Cempaka Tengah", "Snippet": "JL. Let. Jend. Suprapto, Cempaka Baru, 10640 Jakarta Pusat, Indonesia, Jakarta" }, "geometry": { "type": "Point", "coordinates": [ 106.866594899834809, -6.170383899697185, 0.0 ] } },
{ "type": "Feature", "properties": { "OBJECTID": 95, "Name": "Halte Kampung Melayu", "Snippet": "studio myra,bassuki rahmat Jatinegara, Bali Mester, Jatinegara, Kota Jakarta Timur" }, "geometry": { "type": "Point", "coordinates": [ 106.86681609978325, -6.224664999889796, 0.0 ] } },
{ "type": "Feature", "properties": { "OBJECTID": 96, "Name": "Halte Kota Harapan Indah 1", "Snippet": "Jl. Raya Bekasi, Medan Satria, Kota Bks, Jawa Barat 17132" }, "geometry": { "type": "Point", "coordinates": [ 106.973387499733406, -6.193557999801783, 0.0 ] } },
{ "type": "Feature", "properties": { "OBJECTID": 97, "Name": "Halte Busway Kuningan Barat", "Snippet": "Jalan Jenderal Gatot Subroto No.45-49, RT.2/RW.2, West Kuningan, Mampang Prapatan, South Jakarta City, Jakarta 12710" }, "geometry": { "type": "Point", "coordinates": [ 106.827450500340376, -6.237132900363008, 0.0 ] } },
{ "type": "Feature", "properties": { "OBJECTID": 98, "Name": "Ps. Induk Kramat Jati", "Snippet": "RT.9/RW.7, Rambutan, Ciracas, East Jakarta City, Jakarta 13540" }, "geometry": { "type": "Point", "coordinates": [ 106.872038499776977, -6.294222600392629, 0.0 ] } },
{ "type": "Feature", "properties": { "OBJECTID": 99, "Name": "Pulo Gadung", "Snippet": "Pulo Gadung, Kota Jakarta Timur, 13260" }, "geometry": { "type": "Point", "coordinates": [ 106.909071700298796, -6.183233100127438, 0.0 ] } },
{ "type": "Feature", "properties": { "OBJECTID": 100, "Name": "Summarecon Bekasi", "Snippet": "Marga Mulya, North Bekasi, Bekasi City, West Java 17143" }, "geometry": { "type": "Point", "coordinates": [ 107.002817700376625, -6.225516700135529, 0.0 ] } },
{ "type": "Feature", "properties": { "OBJECTID": 101, "Name": "Cawang Otista", "Snippet": "RT.11/RW.12, Kampung Melayu, Jatinegara, Kota Jakarta Timur, 13330" }, "geometry": { "type": "Point", "coordinates": [ 106.868766699623563, -6.243636100425647, 0.0 ] } },
{ "type": "Feature", "properties": { "OBJECTID": 102, "Name": "Cawang Uki", "Snippet": "JL. May. Jend. Sutoyo, Cawang, 13630 Jakarta Timur, Indonesia, Daerah Khusus Ibukota Jakarta" }, "geometry": { "type": "Point", "coordinates": [ 106.873600700412055, -6.250325899920313, 0.0 ] } },
{ "type": "Feature", "properties": { "OBJECTID": 103, "Name": "Halte Transjakarta Gatot Subroto Lipi", "Snippet": "Jalan Jenderal Gatot Subroto, RT.7/RW.1, Senayan, Kebayoran Baru, South Jakarta City, Jakarta 12190" }, "geometry": { "type": "Point", "coordinates": [ 106.817205599858596, -6.226222800142068, 0.0 ] } },
{ "type": "Feature", "properties": { "OBJECTID": 104, "Name": "Halte Busway Raya Bekasi Tipar Cakung", "Snippet": "42-, Jl. Raya Bekasi No.43, RT.4/RW.4, Rw. Terate, Cakung, Kota Jakarta Timur, Daerah Khusus Ibukota Jakarta 13920" }, "geometry": { "type": "Point", "coordinates": [ 106.924721099998806, -6.183461099849808, 0.0 ] } },
{ "type": "Feature", "properties": { "OBJECTID": 105, "Name": "Halte Busway Salemba UI", "Snippet": "RT.1/RW.3, Paseban, Senen, Central Jakarta City, Jakarta 10430" }, "geometry": { "type": "Point", "coordinates": [ 106.848839500142901, -6.193235299669311, 0.0 ] } },
{ "type": "Feature", "properties": { "OBJECTID": 106, "Name": "Halte Busway Bermis", "Snippet": "Jl. Perintis Kemerdekaan, RT.1/RW.5, Kayu Putih, Pulo Gadung, Kota Jakarta Timur, Daerah Khusus Ibukota Jakarta 13210" }, "geometry": { "type": "Point", "coordinates": [ 106.887356299653561, -6.171006199976091, 0.0 ] } },
{ "type": "Feature", "properties": { "OBJECTID": 107, "Name": "Senayan JCC", "Snippet": "Jalan Jendral Gatot Subroto, RT.9/RW.2, Bendungan Hilir, Tanah Abang, Kota Jakarta Pusat, 10210" }, "geometry": { "type": "Point", "coordinates": [ 106.809021299793187, -6.21415990035905, 0.0 ] } },
{ "type": "Feature", "properties": { "OBJECTID": 108, "Name": "Tegalan", "Snippet": "RT.5/RW.4, Palmeriam, Matraman, East Jakarta City, Jakarta 13150" }, "geometry": { "type": "Point", "coordinates": [ 106.857114999557666, -6.202949000296087, 0.0 ] } },
{ "type": "Feature", "properties": { "OBJECTID": 109, "Name": "Pedongkelan", "Snippet": "RT.7/RW.2, Kelapa Gading Barat, Kelapa Gading, Kota Jkt Utara, Daerah Khusus Ibukota Jakarta 13210" }, "geometry": { "type": "Point", "coordinates": [ 106.882555699685838, -6.168018199780022, 0.0 ] } },
{ "type": "Feature", "properties": { "OBJECTID": 110, "Name": "Halte Busway Tanah Merdeka", "Snippet": "Jl. Lkr. Luar Sel., RT.7/RW.5, Rambutan, Ciracas, Kota Jakarta Timur, Daerah Khusus Ibukota Jakarta 13830" }, "geometry": { "type": "Point", "coordinates": [ 106.873940199880394, -6.308162399674984, 0.0 ] } },
{ "type": "Feature", "properties": { "OBJECTID": 111, "Name": "Walikota Jakarta Timur", "Snippet": "Blok Sadar 2, Jalan Doktor Sumarno Blok Sadar 2 No.1, Penggilingan, Cakung, Kota Jakarta Timur, 13940" }, "geometry": { "type": "Point", "coordinates": [ 106.945362600403769, -6.212533399996346, 0.0 ] } },
{ "type": "Feature", "properties": { "OBJECTID": 112, "Name": "Imigrasi", "Snippet": "RT.2/RW.1, Duren Tiga, Pancoran, Kota Jakarta Selatan, 12760" }, "geometry": { "type": "Point", "coordinates": [ 106.828085199572342, -6.256945900332994, 0.0 ] } },
{ "type": "Feature", "properties": { "OBJECTID": 113, "Name": "Garuda Taman Mini", "Snippet": "Gg. Madrasah, Pinang Ranti, Makasar, Kota Jakarta Timur, Daerah Khusus Ibukota Jakarta 13560" }, "geometry": { "type": "Point", "coordinates": [ 106.881145999788146, -6.290151499891749, 0.0 ] } },
{ "type": "Feature", "properties": { "OBJECTID": 114, "Name": "Halte Busway Salemba Carolus", "Snippet": "RT.4/RW.5, Paseban, Senen, Kota Jakarta Pusat, Daerah Khusus Ibukota Jakarta 10430" }, "geometry": { "type": "Point", "coordinates": [ 106.851037200406552, -6.196831300024428, 0.0 ] } },
{ "type": "Feature", "properties": { "OBJECTID": 115, "Name": "Halte Busway Karet Kuningan", "Snippet": "H. R. No.Kav-7/6, Jl. HR Rasuna Said, RT.6/RW.7, Karet Kuningan, Setiabudi, South Jakarta City, Jakarta 12940" }, "geometry": { "type": "Point", "coordinates": [ 106.830984299985516, -6.217742599741143, 0.0 ] } },
{ "type": "Feature", "properties": { "OBJECTID": 116, "Name": "Halte BTC", "Snippet": "Jalan Haji Mulyadi Joyomartono No.36, Margahayu, Bekasi Timur, Kota Bks, Jawa Barat 17113" }, "geometry": { "type": "Point", "coordinates": [ 107.01997780013545, -6.259581600110721, 0.0 ] } },
{ "type": "Feature", "properties": { "OBJECTID": 117, "Name": "UNJ", "Snippet": "Jl. Pemuda, RT.13/RW.2, Rawamangun, Pulo Gadung, Kota Jakarta Timur, Daerah Khusus Ibukota Jakarta 13220" }, "geometry": { "type": "Point", "coordinates": [ 106.880242100192845, -6.192920000057882, 0.0 ] } },
{ "type": "Feature", "properties": { "OBJECTID": 118, "Name": "Penggilingan", "Snippet": "Jl. Penggilingan Raya No.2, RW.4, Penggilingan, Cakung, Kota Jakarta Timur, Daerah Khusus Ibukota Jakarta 13940" }, "geometry": { "type": "Point", "coordinates": [ 106.939613599687959, -6.214148100354521, 0.0 ] } },
{ "type": "Feature", "properties": { "OBJECTID": 119, "Name": "Halte Busway Cawang Otista", "Snippet": "Jl. Otista III, RT.9/RW.9, Kp. Melayu, Jatinegara, Kota Jakarta Timur, Daerah Khusus Ibukota Jakarta 13330" }, "geometry": { "type": "Point", "coordinates": [ 106.868437300441144, -6.231833299866821, 0.0 ] } },
{ "type": "Feature", "properties": { "OBJECTID": 120, "Name": "RS Islam", "Snippet": "RT.16/RW.5, Cempaka Baru, Kemayoran, Kota Jakarta Pusat, Daerah Khusus Ibukota Jakarta 10640" }, "geometry": { "type": "Point", "coordinates": [ 106.870359999714253, -6.168636400049763, 0.0 ] } },
{ "type": "Feature", "properties": { "OBJECTID": 121, "Name": "Halte Busway Cikoko Stasiun", "Snippet": "RT.3/RW.2, Cikoko, Pancoran, South Jakarta City, Jakarta 12770" }, "geometry": { "type": "Point", "coordinates": [ 106.859340300014878, -6.242820499866127, 0.0 ] } },
{ "type": "Feature", "properties": { "OBJECTID": 122, "Name": "Halte Busway Cipinang", "Snippet": "Jl. I Gusti Ngurah Rai, RT.8/RW.8, Cipinang, Pulo Gadung, Kota Jakarta Timur, Daerah Khusus Ibukota Jakarta 13470" }, "geometry": { "type": "Point", "coordinates": [ 106.889479900277252, -6.213726599802669, 0.0 ] } },
{ "type": "Feature", "properties": { "OBJECTID": 123, "Name": "Kuningan Timur", "Snippet": "Jalan Hr. Rasuna Said,Jaksel., RT.5/RW.4, Kuningan Timur, Kecamatan Setiabudi, Kota Jakarta Selatan, 12950" }, "geometry": { "type": "Point", "coordinates": [ 106.829099900140363, -6.234820200192019, 0.0 ] } },
{ "type": "Feature", "properties": { "OBJECTID": 124, "Name": "Tanjung Priok", "Snippet": "Tanjung Priok, North Jakarta City, Jakarta 14310" }, "geometry": { "type": "Point", "coordinates": [ 106.882134000383871, -6.109578899746396, 0.0 ] } },
{ "type": "Feature", "properties": { "OBJECTID": 125, "Name": "Halte Busway Mayjen Sutoyo", "Snippet": "RT.2/RW.10, Pasar Manggis, Setiabudi, South Jakarta City, Jakarta 12970" }, "geometry": { "type": "Point", "coordinates": [ 106.845598999993911, -6.208763399711074, 0.0 ] } },
{ "type": "Feature", "properties": { "OBJECTID": 126, "Name": "Permata Hijau", "Snippet": "RT.4/RW.2, North Grogol, Kebayoran Lama, South Jakarta City, Jakarta 12210" }, "geometry": { "type": "Point", "coordinates": [ 106.7832331996525, -6.221410800368119, 0.0 ] } },
{ "type": "Feature", "properties": { "OBJECTID": 127, "Name": "St. Ka. Jatinegara", "Snippet": "Jl. Bekasi Barat, Rw. Bunga, Matraman, Kota Jakarta Timur, Daerah Khusus Ibukota Jakarta" }, "geometry": { "type": "Point", "coordinates": [ 106.871024599605676, -6.215185399986183, 0.0 ] } },
{ "type": "Feature", "properties": { "OBJECTID": 128, "Name": "Halte Taman Kota Plumpang", "Snippet": "Laks, 14, Yos Sudarso No.3, Sungai Bambu, Tj. Priok, Kota Jkt Utara, Daerah Khusus Ibukota Jakarta 14320" }, "geometry": { "type": "Point", "coordinates": [ 106.894024799604892, -6.127976800289048, 0.0 ] } },
{ "type": "Feature", "properties": { "OBJECTID": 129, "Name": "Perumnas Klender", "Snippet": "Jl. Penggilingan, Penggilingan, Cakung, Kota Jakarta Timur, Daerah Khusus Ibukota Jakarta 13940" }, "geometry": { "type": "Point", "coordinates": [ 106.930542700285457, -6.216689300270957, 0.0 ] } },
{ "type": "Feature", "properties": { "OBJECTID": 130, "Name": "SMP 140", "Snippet": "Jl. Danau Sunter Utara, Sunter Agung, Tj. Priok, Kota Jkt Utara, Daerah Khusus Ibukota Jakarta" }, "geometry": { "type": "Point", "coordinates": [ 106.859200100204532, -6.139764000308332, 0.0 ] } },
{ "type": "Feature", "properties": { "OBJECTID": 131, "Name": "Buaran", "Snippet": "Jl. I Gusti Ngurah Rai, RW.9, Jatinegara, Cakung, Kota Jakarta Timur, Daerah Khusus Ibukota Jakarta 13470" }, "geometry": { "type": "Point", "coordinates": [ 106.917681699850618, -6.215116900424562, 0.0 ] } },
{ "type": "Feature", "properties": { "OBJECTID": 132, "Name": "Halte Busway Palem Semi Tangerang", "Snippet": "Jl. Palem Raja Raya, Panunggangan Bar., Cibodas, Kota Tangerang, Banten 15138" }, "geometry": { "type": "Point", "coordinates": [ 106.615965300258438, -6.220179999907032, 0.0 ] } },
{ "type": "Feature", "properties": { "OBJECTID": 133, "Name": "Terminal Bus Manggarai", "Snippet": "Jalan Tambak, Indonesia|Jl. Sultan Agung Manggarai Tebet Jakarta Selatan DKI Jakarta, Indonesia, Daerah Khusus Ibukota Jakarta" }, "geometry": { "type": "Point", "coordinates": [ 106.847298400300986, -6.208911300416162, 0.0 ] } },
{ "type": "Feature", "properties": { "OBJECTID": 134, "Name": "Bermis", "Snippet": "RT.6/RW.8, Pulo Gadung, East Jakarta City, Jakarta 13260" }, "geometry": { "type": "Point", "coordinates": [ 106.898407499906284, -6.178213800326603, 0.0 ] } },
{ "type": "Feature", "properties": { "OBJECTID": 135, "Name": "Rawa Selatan", "Snippet": "JL. Let. Jend. Suprapto, Harapan Mulia, 10610 Jakarta Pusat, Indonesia,, 10640, Indonesia, Cempaka Baru, Kemayoran, Kota Jakarta Pusat, Daerah Khusus Ibukota Jakarta,, Indonesia, Daerah Khusus Ibukota Jakarta" }, "geometry": { "type": "Point", "coordinates": [ 106.858204100139176, -6.17390380032009, 0.0 ] } },
{ "type": "Feature", "properties": { "OBJECTID": 136, "Name": "Halte Busway Galur", "Snippet": "Jl. Letjen Suprapto, RT.1/RW.4, Galur, Johar Baru, Kota Jakarta Pusat, Daerah Khusus Ibukota Jakarta 10640" }, "geometry": { "type": "Point", "coordinates": [ 106.854782800286046, -6.17442160027656, 0.0 ] } },
{ "type": "Feature", "properties": { "OBJECTID": 137, "Name": "Halte Busway PPD", "Snippet": "Jl. R.E. Martadinata No.14, Cipayung, Ciputat, Kota Tangerang Selatan, Banten 15411" }, "geometry": { "type": "Point", "coordinates": [ 106.748329299657541, -6.331114600158628, 0.0 ] } },
{ "type": "Feature", "properties": { "OBJECTID": 138, "Name": "Halte Busway Deplu", "Snippet": "JL. Dr. Abd. Rahman Saleh, Senen, 10410 Jakarta Pusat, Indonesia, 10410" }, "geometry": { "type": "Point", "coordinates": [ 106.834700000104988, -6.173500000224806, 0.0 ] } },
{ "type": "Feature", "properties": { "OBJECTID": 139, "Name": "Halte Busway Patra Kuningan", "Snippet": "Jl. H. R. Rasuna Said, RT.1/RW.2, Kuningan, Kuningan Tim., Kecamatan Setiabudi, Kota Jakarta Selatan, Daerah Khusus Ibukota Jakarta 12950" }, "geometry": { "type": "Point", "coordinates": [ 106.831245099781597, -6.233479599703742, 0.0 ] } },
{ "type": "Feature", "properties": { "OBJECTID": 140, "Name": "Ragunan", "Snippet": "Ragunan, Pasar Minggu, South Jakarta City, Jakarta 12550" }, "geometry": { "type": "Point", "coordinates": [ 106.819949700318489, -6.305799600071452, 0.0 ] } },
{ "type": "Feature", "properties": { "OBJECTID": 141, "Name": "Asmi", "Snippet": "Jl. Perintis Kemerdekaan No.31, RW.5, Klp. Gading Bar., Klp. Gading, Kota Jkt Utara, Daerah Khusus Ibukota Jakarta 14240" }, "geometry": { "type": "Point", "coordinates": [ 106.888733999874262, -6.171790600355848, 0.0 ] } },
{ "type": "Feature", "properties": { "OBJECTID": 142, "Name": "Halte Busway Kwitang", "Snippet": "JL. Prapatan/JL. Kwitang, Kwitang, 10420 Jakarta Pusat, Indonesia" }, "geometry": { "type": "Point", "coordinates": [ 106.838379999837173, -6.181160000033913, 0.0 ] } },
{ "type": "Feature", "properties": { "OBJECTID": 143, "Name": "Pasar Jatinegara", "Snippet": "JL. Jatinegara Timur, Balimester, 13310 Jakarta Timur, Indonesia, 13310, Jawa Timur 13310" }, "geometry": { "type": "Point", "coordinates": [ 106.866319999568361, -6.215762500339054, 0.0 ] } },
{ "type": "Feature", "properties": { "OBJECTID": 144, "Name": "Taman Kota", "Snippet": "Jl. Taman Kota, Kedaung Kali Angke, Cengkareng, Kota Jakarta Barat, Daerah Khusus Ibukota Jakarta" }, "geometry": { "type": "Point", "coordinates": [ 106.757886100063502, -6.157125399817289, 0.0 ] } },
{ "type": "Feature", "properties": { "OBJECTID": 145, "Name": "Kebon Pala", "Snippet": "RT.1/RW.6, Bali Mester, Jatinegara, Kota Jakarta Timur, 13320" }, "geometry": { "type": "Point", "coordinates": [ 106.861172999634277, -6.212900499658303, 0.0 ] } },
{ "type": "Feature", "properties": { "OBJECTID": 146, "Name": "SMK 57", "Snippet": "Jl. Warung Jati Barat No.37, Jati Padang, Ps. Minggu, Kota Jakarta Selatan, Daerah Khusus Ibukota Jakarta 12540" }, "geometry": { "type": "Point", "coordinates": [ 106.823616800175273, -6.291037699929859, 0.0 ] } },
{ "type": "Feature", "properties": { "OBJECTID": 147, "Name": "Gambir 2", "Snippet": "RT.5/RW.2, Gambir, Kota Jakarta Pusat, 10110" }, "geometry": { "type": "Point", "coordinates": [ 106.831044800077507, -6.178941100051702, 0.0 ] } },
{ "type": "Feature", "properties": { "OBJECTID": 148, "Name": "Halte Busway Bundaran Senayan", "Snippet": "Gelora 1 3, Gelora, Tanah Abang, Kota Jakarta Pusat, Daerah Khusus Ibukota Jakarta 10270" }, "geometry": { "type": "Point", "coordinates": [ 106.796918200314735, -6.21156429955272, 0.0 ] } },
{ "type": "Feature", "properties": { "OBJECTID": 149, "Name": "Jatinegara 2 Halte", "Snippet": "Jalan Raya Bekasi Barat, Pisangan Baru, Matraman, Kota Jakarta Timur, 13110" }, "geometry": { "type": "Point", "coordinates": [ 106.868047400267358, -6.215597300275135, 0.0 ] } },
{ "type": "Feature", "properties": { "OBJECTID": 150, "Name": "Kemayoran Landas Pacu Timur", "Snippet": "No., Jalan HBR Motik No.101, Kemayoran, Kota Jakarta Pusat, 10630" }, "geometry": { "type": "Point", "coordinates": [ 106.854216800265192, -6.152183299619537, 0.0 ] } },
{ "type": "Feature", "properties": { "OBJECTID": 151, "Name": "Indosiar", "Snippet": "Daan Mogot Road, RT.4/RW.5, Duri Kepa, Kebon Jeruk, West Jakarta City, Jakarta 11510" }, "geometry": { "type": "Point", "coordinates": [ 106.775194700375209, -6.16338010011151, 0.0 ] } },
{ "type": "Feature", "properties": { "OBJECTID": 152, "Name": "Pejaten", "Snippet": "Jl. Warung Jati Bar., Kota Jakarta Selatan, Daerah Khusus Ibukota Jakarta 12510" }, "geometry": { "type": "Point", "coordinates": [ 106.829736600363901, -6.278380500259857, 0.0 ] } },
{ "type": "Feature", "properties": { "OBJECTID": 153, "Name": "Mangga Dua", "Snippet": "RT.11/RW.5, Ancol, Pademangan, North Jakarta City, Jakarta 14430" }, "geometry": { "type": "Point", "coordinates": [ 106.82596529965889, -6.136166700432852, 0.0 ] } },
{ "type": "Feature", "properties": { "OBJECTID": 154, "Name": "Halte Busway PRJ", "Snippet": "JalanBenyamin Suaeb, Pademangan Tim., Pademangan, Kota Jkt Utara, Daerah Khusus Ibukota Jakarta 14410" }, "geometry": { "type": "Point", "coordinates": [ 106.848651000443397, -6.144803700330442, 0.0 ] } },
{ "type": "Feature", "properties": { "OBJECTID": 155, "Name": "Halte Busway Rspad", "Snippet": "Jl. Kwini No.2, RT.6/RW.1, Senen, Kota Jakarta Pusat, Daerah Khusus Ibukota Jakarta 10410" }, "geometry": { "type": "Point", "coordinates": [ 106.837784299705731, -6.17466419959311, 0.0 ] } },
{ "type": "Feature", "properties": { "OBJECTID": 156, "Name": "Halte Busway Pasar Genjing", "Snippet": "Jalan Pramuka Raya, RT.7/RW.2, Rawasari, Cemp. Putih, Kota Jakarta Pusat, Daerah Khusus Ibukota Jakarta 10570" }, "geometry": { "type": "Point", "coordinates": [ 106.860895600151878, -6.194442099922924, 0.0 ] } },
{ "type": "Feature", "properties": { "OBJECTID": 157, "Name": "Duren Tiga", "Snippet": "Jl. Mampang Prpt. Raya, RT.1/RW.6, Tegal Parang, Mampang Prpt., Kota Jakarta Selatan, Daerah Khusus Ibukota Jakarta 12790" }, "geometry": { "type": "Point", "coordinates": [ 106.826968899894894, -6.252356700401378, 0.0 ] } },
{ "type": "Feature", "properties": { "OBJECTID": 158, "Name": "Halte Busway GOR Sumantri", "Snippet": "Jalan Hr. Rasuna Said,Jaksel., RT.2/RW.5, Karet Kuningan, Kecamatan Setiabudi, Kota Jakarta Selatan, 12940" }, "geometry": { "type": "Point", "coordinates": [ 106.831891500092695, -6.22047490019645, 0.0 ] } },
{ "type": "Feature", "properties": { "OBJECTID": 159, "Name": "RS Tarakan", "Snippet": "RT.11/RW.4, Cideng, Gambir, Kota Jakarta Pusat, 10150" }, "geometry": { "type": "Point", "coordinates": [ 106.810110799673737, -6.171160100058501, 0.0 ] } },
{ "type": "Feature", "properties": { "OBJECTID": 160, "Name": "Buncit Indah", "Snippet": "Jl. Wr. Jati Timur Raya, RT.12/RW.5, Kalibata, Pancoran, Kota Jakarta Selatan, Daerah Khusus Ibukota Jakarta 12510" }, "geometry": { "type": "Point", "coordinates": [ 106.830284399905167, -6.274325500321538, 0.0 ] } },
{ "type": "Feature", "properties": { "OBJECTID": 161, "Name": "Jelambar", "Snippet": "Jl. Daan Mogot, RT.8/RW.4, Tj. Duren Utara, Grogol petamburan, Kota Jakarta Barat, Daerah Khusus Ibukota Jakarta 11470" }, "geometry": { "type": "Point", "coordinates": [ 106.786478700032035, -6.16653099990566, 0.0 ] } },
{ "type": "Feature", "properties": { "OBJECTID": 162, "Name": "Halte Busway Stasiun Tebet", "Snippet": "Unnamed Road, RT.1/RW.6, Bukit Duri, Tebet, Kota Jakarta Selatan, Daerah Khusus Ibukota Jakarta 12820" }, "geometry": { "type": "Point", "coordinates": [ 106.858089700079631, -6.22552650004792, 0.0 ] } },
{ "type": "Feature", "properties": { "OBJECTID": 163, "Name": "Pulomas", "Snippet": "Jalan Perintis Kemerdekaan, Daerah Khusus Ibukota Jakarta" }, "geometry": { "type": "Point", "coordinates": [ 106.892562000136252, -6.174601800132905, 0.0 ] } },
{ "type": "Feature", "properties": { "OBJECTID": 164, "Name": "Pramuka LIA", "Snippet": "Jl. Pramuka, RT.6/RW.8, Utan Kayu Utara, Matraman, Kota Jakarta Timur, Daerah Khusus Ibukota Jakarta 13120" }, "geometry": { "type": "Point", "coordinates": [ 106.868561000389889, -6.192231999806893, 0.0 ] } },
{ "type": "Feature", "properties": { "OBJECTID": 165, "Name": "Sumur Bor", "Snippet": "Jalan Daan Mogot, Cengkareng Barat, Cengkareng, Kota Jakarta Barat, 11730" }, "geometry": { "type": "Point", "coordinates": [ 106.719408100003875, -6.153032499749997, 0.0 ] } },
{ "type": "Feature", "properties": { "OBJECTID": 166, "Name": "Halte Busway - Cibubur Junction", "Snippet": "Akses Toll Jagorawi, Jl. Jambore, Kota Jakarta Timur, Daerah Khusus Ibukota Jakarta" }, "geometry": { "type": "Point", "coordinates": [ 106.893366199990226, -6.369538300052454, 0.0 ] } },
{ "type": "Feature", "properties": { "OBJECTID": 167, "Name": "Pasar Baru Timur", "Snippet": "Jalan Gunung Sahari, Daerah Khusus Ibukota Jakarta, Indonesia|Jalan Pos, Pasar Baru, Sawah Besar, Daerah Khusus Ibukota Jakarta" }, "geometry": { "type": "Point", "coordinates": [ 106.838132000091775, -6.162329399681994, 0.0 ] } },
{ "type": "Feature", "properties": { "OBJECTID": 168, "Name": "Pangeran Jayakarta", "Snippet": "Jl. Mangga Dua Raya, RT.3/RW.4, Pinangsia, Tamansari, Kota Jkt Utara, Daerah Khusus Ibukota Jakarta 11110" }, "geometry": { "type": "Point", "coordinates": [ 106.817909000100315, -6.137613599887686, 0.0 ] } },
{ "type": "Feature", "properties": { "OBJECTID": 169, "Name": "Jembatan Besi", "Snippet": "RT.10/RW.1, Jembatan Besi, Tambora, West Jakarta City, Jakarta 11320" }, "geometry": { "type": "Point", "coordinates": [ 106.794908300078021, -6.152007599970716, 0.0 ] } },
{ "type": "Feature", "properties": { "OBJECTID": 170, "Name": "Enggano", "Snippet": "Jalan Raya Pelabuhan No.Tanjung Priok, Tanjung Priok, Kota Jkt Utara, 14310" }, "geometry": { "type": "Point", "coordinates": [ 106.892418800187556, -6.110153699633486, 0.0 ] } },
{ "type": "Feature", "properties": { "OBJECTID": 171, "Name": "Gelora Bung Karno", "Snippet": "Jalan Jenderal Sudirman, Indonesia, Daerah Khusus Ibukota Jakarta" }, "geometry": { "type": "Point", "coordinates": [ 106.805805200050031, -6.224217199564066, 0.0 ] } },
{ "type": "Feature", "properties": { "OBJECTID": 172, "Name": "Latuharhari", "Snippet": "JL. H.R. Rasuna Said, Menteng, 10310 Jakarta Pusat, Indonesia, Jakarta" }, "geometry": { "type": "Point", "coordinates": [ 106.827638199643275, -6.20288940042542, 0.0 ] } },
{ "type": "Feature", "properties": { "OBJECTID": 173, "Name": "Halte Busway Rawa Buaya", "Snippet": "Jalan AA, RW.2, Cengkareng Barat, Cengkareng, Kota Jakarta Barat, 11730" }, "geometry": { "type": "Point", "coordinates": [ 106.72618599978415, -6.153913900106375, 0.0 ] } },
{ "type": "Feature", "properties": { "OBJECTID": 174, "Name": "Department Of Agriculture Busway Shelter", "Snippet": "Jl. RM. Harsono, Ragunan, Ps. Minggu, Kota Jakarta Selatan, Daerah Khusus Ibukota Jakarta" }, "geometry": { "type": "Point", "coordinates": [ 106.822117800296326, -6.294638599791483, 0.0 ] } },
{ "type": "Feature", "properties": { "OBJECTID": 175, "Name": "Mampang Prapatan", "Snippet": "Jl. Mampang Prpt. Raya, RT.6/RW.6, Mampang Prpt., Kota Jakarta Selatan, Daerah Khusus Ibukota Jakarta 12790" }, "geometry": { "type": "Point", "coordinates": [ 106.825714600148729, -6.242632299640889, 0.0 ] } },
{ "type": "Feature", "properties": { "OBJECTID": 176, "Name": "Pancoran Barat", "Snippet": "Jalan Jendral Gatot Subroto, RT.9/RW.1, Menteng Dalam, Tebet, Kota Jakarta Selatan, 12870" }, "geometry": { "type": "Point", "coordinates": [ 106.837178699837182, -6.241675099925885, 0.0 ] } },
{ "type": "Feature", "properties": { "OBJECTID": 177, "Name": "Kuningan Madya Aini", "Snippet": "Jalan Hr. Rasuna Said,Jaksel., RT.3/RW.1, Karet, Kecamatan Setiabudi, Kota Jakarta Selatan, 12920" }, "geometry": { "type": "Point", "coordinates": [ 106.830412299687964, -6.212567200116155, 0.0 ] } },
{ "type": "Feature", "properties": { "OBJECTID": 178, "Name": "Pal Putih BRT Station", "Snippet": "RT.3/RW.4, Kramat, Senen, Kota Jakarta Pusat, 10420" }, "geometry": { "type": "Point", "coordinates": [ 106.843993800073861, -6.184562799933246, 0.0 ] } },
{ "type": "Feature", "properties": { "OBJECTID": 179, "Name": "BNN", "Snippet": "RT.1/RW.6, Cawang, Kramatjati, East Jakarta City, Jakarta 13630" }, "geometry": { "type": "Point", "coordinates": [ 106.871856799851514, -6.245860599586933, 0.0 ] } },
{ "type": "Feature", "properties": { "OBJECTID": 180, "Name": "PGC 1", "Snippet": "Cililitan, Kramat Jati, Kramatjati, Kota Jakarta Timur, Daerah Khusus Ibukota Jakarta 13510" }, "geometry": { "type": "Point", "coordinates": [ 106.866358500444505, -6.262486199878197, 0.0 ] } },
{ "type": "Feature", "properties": { "OBJECTID": 181, "Name": "Busway stop Salemba", "Snippet": "Jl. Salemba Raya, RW.5, Kenari, Senen, Kota Jakarta Pusat, Daerah Khusus Ibukota Jakarta 10430" }, "geometry": { "type": "Point", "coordinates": [ 106.849216399717136, -6.194177700140699, 0.0 ] } },
{ "type": "Feature", "properties": { "OBJECTID": 182, "Name": "Kebon Jeruk", "Snippet": "Jl. Panjang No.8, Kb. Jeruk, Kota Jakarta Barat, Daerah Khusus Ibukota Jakarta 11530" }, "geometry": { "type": "Point", "coordinates": [ 106.768881400256475, -6.194285199702165, 0.0 ] } },
{ "type": "Feature", "properties": { "OBJECTID": 183, "Name": "Halte Busway Bulak Kapal", "Snippet": "Jl. HM. Joyo Martono No.7, Margahayu, Bekasi Tim., Kota Bks, Jawa Barat 17113" }, "geometry": { "type": "Point", "coordinates": [ 107.024011100332075, -6.250705199785102, 0.0 ] } },
{ "type": "Feature", "properties": { "OBJECTID": 184, "Name": "Jembatan Baru", "Snippet": "Halte Busway Jl. Daan Mogot RT.6/RW.1, Tim. Cengkareng Tim. Cengkareng, Cengkareng, Kota Jakarta Barat, 11730" }, "geometry": { "type": "Point", "coordinates": [ 106.730407799680279, -6.15483080030117, 0.0 ] } },
{ "type": "Feature", "properties": { "OBJECTID": 185, "Name": "Halte Busway Jati Padang", "Snippet": "Jl. Warung Jati Barat, RT.3/RW.5, Jati Padang, Ps. Minggu, Kota Jakarta Selatan, Daerah Khusus Ibukota Jakarta 12540" }, "geometry": { "type": "Point", "coordinates": [ 106.826286200247978, -6.285371999817869, 0.0 ] } },
{ "type": "Feature", "properties": { "OBJECTID": 186, "Name": "Grogol 1", "Snippet": "RT.6/RW.16, Grogol, Grogol petamburan, Kota Jakarta Barat, Daerah Khusus Ibukota Jakarta 11450" }, "geometry": { "type": "Point", "coordinates": [ 106.789693100056581, -6.166825699646267, 0.0 ] } },
{ "type": "Feature", "properties": { "OBJECTID": 187, "Name": "Pasar Kebayoran Lama", "Snippet": "12230, Jl. Sultan Iskandar Muda, Kby. Lama Utara, Kby. Lama, Kota Jakarta Selatan, Daerah Khusus Ibukota Jakarta 12240" }, "geometry": { "type": "Point", "coordinates": [ 106.783220500325911, -6.238409200224339, 0.0 ] } },
{ "type": "Feature", "properties": { "OBJECTID": 188, "Name": "Karet", "Snippet": "Jl. Jend. Sudirman No.Kav 25, Kota SelatanSetia Budi,, Karet, Kecamatan, Setiabudi, Kota Jakarta Selatan, Daerah Khusus Ibukota Jakarta, Indonesia, Daerah Khusus Ibukota Jakarta" }, "geometry": { "type": "Point", "coordinates": [ 106.820046200271975, -6.212417900065986, 0.0 ] } },
{ "type": "Feature", "properties": { "OBJECTID": 189, "Name": "Mangga Besar", "Snippet": "RT.4/RW.9, Maphar, Tamansari, West Jakarta City, Jakarta 11130" }, "geometry": { "type": "Point", "coordinates": [ 106.817436300245106, -6.152161300403634, 0.0 ] } },
{ "type": "Feature", "properties": { "OBJECTID": 190, "Name": "Tomang Mandala", "Snippet": "Jl. Tomang Raya, RT.5/RW.1, Jatipulo, Palmerah, Kota Jakarta Barat, Daerah Khusus Ibukota Jakarta 11430" }, "geometry": { "type": "Point", "coordinates": [ 106.800374499983263, -6.176884200345512, 0.0 ] } }
]
}
